City_ID,City,Cloudiness,Country,Date,Humidity,Lat,Lng,Max Temp,Wind Speed
0,katsuura,40,JP,1525820400,87,33.93,134.5,57.2,8.05
1,fortuna,68,ES,1525824000,93,38.18,-1.13,62.6,1.12
2,kavieng,12,PG,1525825641,100,-2.57,150.8,85.34,9.64
3,ginir,24,ET,1525825642,82,7.14,40.71,57.71,2.93
4,jalu,56,LY,1525825642,24,29.03,21.55,75.98,9.42
5,cape town,75,ZA,1525824000,76,-33.93,18.42,57.2,12.75
6,yar-sale,44,RU,1525825643,85,66.83,70.83,7.67,5.95
7,butaritari,8,KI,1525825643,100,3.07,172.79,83.54,8.63
8,new norfolk,75,AU,1525824000,51,-42.78,147.06,59.0,8.05
9,lac du bonnet,12,CA,1525825643,41,50.25,-96.06,66.17,10.42
10,victoria,75,BN,1525822200,100,5.28,115.24,80.6,3.36
11,buala,68,SB,1525825644,88,-8.15,159.59,83.72,9.64
12,seminole,1,US,1525824900,9,32.72,-102.64,91.4,12.75
13,tuktoyaktuk,20,CA,1525820400,67,69.44,-133.03,21.2,12.75
14,saint-denis,0,FR,1525824000,76,48.94,2.36,57.2,8.05
15,huai yot,20,TH,1525825646,95,7.79,99.63,76.34,2.04
16,hermanus,64,ZA,1525825646,78,-34.42,19.24,56.63,10.76
17,punta arenas,20,CL,1525824000,81,-53.16,-70.91,51.8,20.8
18,ushuaia,20,AR,1525824000,71,-54.81,-68.31,53.6,13.44
19,dikson,76,RU,1525825647,89,73.51,80.55,14.87,19.26
20,lebu,0,ET,1525825647,59,8.96,38.73,45.83,3.6
21,lasa,40,CY,1525824000,93,34.92,32.53,66.2,1.12
22,uray,64,RU,1525825648,85,60.13,64.8,42.14,6.96
23,margate,75,AU,1525824000,51,-43.03,147.26,59.0,8.05
24,vallenar,20,CL,1525825648,76,-28.58,-70.76,50.24,2.71
25,emerald,0,AU,1525825649,67,-23.53,148.16,69.32,8.19
26,dehloran,88,IR,1525825649,69,32.69,47.27,73.37,12.88
27,altay,0,CN,1525825649,55,47.83,88.13,17.66,2.48
28,castro,0,CL,1525825650,95,-42.48,-73.76,41.78,4.38
29,diego de almagro,0,CL,1525825650,91,-26.39,-70.05,55.37,2.26
30,terrace,75,CA,1525820400,38,54.52,-128.61,73.4,3.36
31,leningradskiy,24,RU,1525825651,100,69.38,178.42,14.6,19.15
32,bluff,0,AU,1525825651,80,-23.58,149.07,68.69,5.28
33,mataura,0,NZ,1525825651,77,-46.19,168.86,56.81,13.78
34,clyde river,90,CA,1525823520,78,70.47,-68.59,10.4,9.17
35,mangan,80,IN,1525825652,91,27.5,88.54,35.75,0.92
36,ojinaga,0,US,1525825653,10,29.56,-104.41,92.72,4.38
37,rikitea,36,PF,1525825653,100,-23.12,-134.97,77.33,19.04
38,dukat,0,RS,1525825653,85,42.44,22.31,46.37,1.7
39,eyl,0,SO,1525825654,95,7.98,49.82,81.29,9.64
40,khatanga,68,RU,1525825654,94,71.98,102.47,16.04,4.61
41,matongo,44,BI,1525825654,94,-3.07,29.61,55.28,1.92
42,avarua,75,CK,1525824000,66,-21.21,-159.78,86.0,5.82
43,manta,32,RO,1525825655,96,45.1,24.1,54.56,3.15
44,hami,0,CN,1525825655,56,42.84,93.51,46.82,5.84
45,kokkola,0,FI,1525823400,52,63.84,23.13,46.4,8.05
46,jamestown,56,AU,1525825599,61,-33.21,138.6,56.18,4.5
47,kizema,12,RU,1525825657,80,61.11,44.83,35.75,14.23
48,qaqortoq,0,GL,1525823400,55,60.72,-46.03,35.6,12.75
49,notse,12,TG,1525825657,75,6.95,1.17,78.32,7.96
50,yellowknife,20,CA,1525820400,37,62.45,-114.38,50.0,18.34
51,vila velha,75,BR,1525824000,83,-3.71,-38.6,80.6,4.7
52,keti bandar,36,PK,1525825658,100,24.14,67.45,82.37,16.02
53,japura,48,ID,1525825659,96,-0.42,102.29,74.36,2.93
54,seaford,0,GB,1525823400,81,50.77,0.1,57.2,5.82
55,banikoara,20,BJ,1525825660,52,11.3,2.44,83.72,12.33
56,thompson,75,CA,1525820400,28,55.74,-97.86,55.4,10.29
57,albany,20,US,1525823700,37,42.65,-73.75,71.6,5.82
58,touros,24,BR,1525825661,83,-5.2,-35.46,79.67,14.79
59,kruisfontein,24,ZA,1525825661,91,-34.0,24.73,59.51,11.43
60,kautokeino,20,NO,1525825661,90,69.01,23.04,33.77,7.18
61,qaanaaq,68,GL,1525825662,92,77.48,-69.36,8.39,4.83
62,saint-pierre,0,FR,1525824000,77,48.95,4.24,59.0,6.93
63,jacksonville,20,US,1525823760,69,30.33,-81.66,75.2,6.93
64,hamilton,75,BM,1525823700,88,32.3,-64.78,73.4,11.41
65,saint-philippe,1,CA,1525824900,39,45.36,-73.48,69.8,5.5
66,faya,0,SA,1525824000,30,18.39,42.45,68.0,6.93
67,miri,0,NG,1525825664,66,10.31,9.75,74.0,7.4
68,hilo,90,US,1525824540,100,19.71,-155.08,71.6,6.93
69,la rioja,92,AR,1525825665,81,-29.41,-66.86,66.26,2.93
70,kapaa,1,US,1525823760,61,22.08,-159.32,77.0,19.46
71,ulaanbaatar,40,MN,1525822200,59,47.92,106.92,33.8,6.71
72,puerto ayora,75,EC,1525824000,74,-0.74,-90.35,80.6,11.41
73,atuona,12,PF,1525825666,100,-9.8,-139.03,81.47,18.59
74,busselton,0,AU,1525825666,100,-33.64,115.35,56.63,8.63
75,vaini,64,IN,1525825666,94,15.34,74.49,70.94,2.48
76,mar del plata,0,AR,1525825667,60,-46.43,-67.52,56.72,13.89
77,morondava,36,MG,1525825667,100,-20.3,44.28,72.47,4.16
78,nikolskoye,0,RU,1525822200,39,59.7,30.79,50.0,6.71
79,santa lucia,40,IT,1525823700,87,39.93,9.66,60.8,5.82
80,olinda,90,EC,1525824000,65,-2.03,-79.75,80.6,4.7
81,luganville,36,VU,1525825669,98,-15.51,167.18,80.66,18.7
82,samarai,80,PG,1525825669,100,-10.62,150.67,81.29,14.23
83,camocim,48,BR,1525825670,92,-2.9,-40.84,77.87,4.05
84,nizwa,0,OM,1525825670,55,22.93,57.53,68.51,4.05
85,batagay-alyta,0,RU,1525825671,71,67.8,130.41,25.31,15.79
86,broome,0,GB,1525823460,82,52.47,1.45,57.2,3.36
87,portland,90,US,1525823580,49,45.52,-122.67,71.6,6.93
88,paralimni,12,GR,1525825671,93,40.99,23.67,54.2,2.37
89,gondanglegi,0,ID,1525825672,78,-7.75,112.01,73.1,4.38
90,matehuala,0,MX,1525825672,35,23.65,-100.64,72.92,4.27
91,bethel,90,US,1525823580,57,60.79,-161.76,48.2,17.22
92,arraial do cabo,40,BR,1525820400,88,-22.97,-42.02,69.8,4.7
93,tolbazy,40,RU,1525822200,62,54.01,55.89,51.8,11.18
94,acajutla,40,SV,1525823400,61,13.59,-89.83,89.6,3.36
95,svetlogorsk,90,RU,1525822200,70,53.14,59.15,44.6,6.71
96,bredasdorp,88,ZA,1525825674,83,-34.53,20.04,63.38,30.44
97,ust-tsilma,80,RU,1525825675,97,65.44,52.15,31.79,6.06
98,agirish,88,RU,1525825675,88,61.92,63.02,39.89,6.4
99,virudunagar,48,IN,1525825482,97,9.6,77.97,73.91,2.93
100,port elizabeth,1,US,1525823760,59,39.31,-74.98,66.2,10.29
101,kollam,40,IN,1525822200,88,8.88,76.6,78.8,3.6
102,hithadhoo,36,MV,1525825676,100,-0.6,73.08,80.93,8.41
103,kahului,90,US,1525823760,94,20.89,-156.47,71.6,17.22
104,tilichiki,0,RU,1525825677,90,60.47,166.1,33.95,5.73
105,berlevag,0,NO,1525819800,69,70.86,29.09,35.6,14.99
106,hobart,75,AU,1525824000,51,-42.88,147.33,59.0,8.05
107,padang,0,ID,1525825678,100,-0.92,100.36,83.81,3.71
108,evensk,36,RU,1525825678,93,61.92,159.24,32.69,2.26
109,salinas,1,US,1525823700,68,36.67,-121.66,77.0,5.82
110,east london,0,ZA,1525825678,100,-33.02,27.91,72.56,12.21
111,pavlogradka,12,RU,1525825679,76,54.2,73.56,34.04,5.84
112,oga,24,NG,1525825679,77,8.18,5.65,79.13,13.33
113,saskylakh,76,RU,1525825680,95,71.97,114.09,18.02,4.61
114,kununurra,0,AU,1525824000,28,-15.77,128.74,84.2,10.29
115,abha,0,SA,1525824000,30,18.22,42.5,68.0,6.93
116,banda aceh,12,ID,1525825681,100,5.56,95.32,74.81,2.04
117,norman wells,20,CA,1525820400,66,65.28,-126.83,48.2,13.87
118,bambous virieux,40,MU,1525824000,78,-20.34,57.76,75.2,5.82
119,laranjeiras do sul,20,BR,1525825682,71,-25.41,-52.42,68.06,4.38
120,comodoro rivadavia,0,AR,1525824000,59,-45.87,-67.48,62.6,5.82
121,tiksi,80,RU,1525825682,98,71.64,128.87,17.12,4.38
122,breves,48,BR,1525825682,92,-1.68,-50.48,78.95,7.18
123,bilari,0,IN,1525825683,79,28.62,78.8,67.43,2.93
124,matara,24,PE,1525825683,74,-13.74,-72.9,47.09,1.92
125,tasiilaq,68,GL,1525823400,54,65.61,-37.64,28.4,2.24
126,mayo,20,CA,1525820400,30,63.59,-135.9,57.2,14.99
127,vardo,20,US,1525824900,40,39.62,-77.74,73.4,4.7
128,sisimiut,48,GL,1525825685,100,66.94,-53.67,15.59,2.15
129,bismarck,1,US,1525824900,68,46.81,-100.78,64.4,10.29
130,syumsi,64,RU,1525825685,97,57.11,51.61,47.27,7.4
131,kahama,68,TZ,1525825686,83,-3.83,32.6,67.97,8.75
132,nuuk,20,GL,1525823400,62,64.17,-51.74,23.0,9.17
133,koygorodok,92,RU,1525825686,98,60.44,51.01,38.81,14.45
134,aklavik,75,CA,1525820400,60,68.22,-135.01,42.8,9.17
135,bada,0,NG,1525825687,43,12.41,4.51,82.01,11.21
136,klaksvik,32,FO,1525823400,93,62.23,-6.59,44.6,11.41
137,isangel,0,VU,1525825688,98,-19.55,169.27,78.86,18.59
138,the valley,20,AI,1525820400,69,18.22,-63.06,78.8,14.99
139,falmouth,20,GB,1525823400,93,50.16,-5.07,46.4,5.82
140,iqaluit,90,CA,1525820400,79,63.75,-68.52,21.2,12.75
141,georgetown,75,GY,1525824000,94,6.8,-58.16,75.2,6.93
142,oktyabrskiy,0,RU,1525822200,62,55.61,37.97,57.2,11.18
143,dengzhou,0,CN,1525825691,66,32.69,112.08,67.97,6.4
144,san quintin,40,PH,1525820400,78,17.54,120.52,80.6,2.24
145,abu dhabi,0,AE,1525824000,65,24.47,54.37,84.2,2.15
146,salalah,20,OM,1525823400,88,17.01,54.1,82.4,4.7
147,hovd,0,NO,1525823400,39,63.83,10.7,64.4,6.93
148,zemio,32,CF,1525825692,92,5.02,25.13,69.32,2.48
149,senneterre,40,CA,1525820400,67,48.39,-77.24,57.2,12.75
150,laguna,20,MX,1525822800,20,27.52,-110.01,93.2,9.17
151,vanimo,8,PG,1525825693,100,-2.67,141.3,83.72,5.61
152,yulara,0,AU,1525824000,20,-25.24,130.99,68.0,6.93
153,chokurdakh,76,RU,1525825694,100,70.62,147.9,15.68,7.18
154,severo-kurilsk,8,RU,1525825694,92,50.68,156.12,37.37,16.02
155,nanortalik,24,GL,1525825694,100,60.14,-45.24,29.81,17.69
156,barranca,80,PE,1525825682,100,-10.75,-77.76,66.17,5.28
157,port alfred,20,ZA,1525825695,97,-33.59,26.89,63.38,9.19
158,micheweni,80,TZ,1525825695,100,-4.97,39.83,79.04,15.68
159,manitouwadge,92,CA,1525825696,46,49.12,-85.84,51.77,5.28
160,ilulissat,0,GL,1525823400,61,69.22,-51.1,14.0,2.24
161,longyearbyen,40,NO,1525823400,86,78.22,15.63,33.8,12.75
162,havelock,90,US,1525823880,88,34.88,-76.9,64.4,11.41
163,kokopo,0,PG,1525825697,96,-4.34,152.27,83.99,7.63
164,richards bay,0,ZA,1525825698,92,-28.77,32.06,63.92,9.98
165,luderitz,0,NA,1525825698,93,-26.65,15.16,55.91,11.54
166,aconibe,44,GQ,1525825698,98,1.29,10.94,68.06,2.15
167,sangar,12,RU,1525825699,72,63.92,127.47,35.84,5.17
168,manono,68,CD,1525825699,93,-7.3,27.4,69.86,2.93
169,mehamn,0,NO,1525819800,69,71.03,27.85,35.6,14.99
170,talara,76,PE,1525825700,68,-4.58,-81.27,75.89,6.4
171,belmonte,0,PT,1525825700,75,40.36,-7.35,56.81,5.17
172,cayenne,75,GF,1525824000,94,4.94,-52.33,77.0,3.36
173,srandakan,0,ID,1525825701,84,-7.94,110.25,73.46,3.94
174,adrar,0,DZ,1525824000,28,27.87,-0.29,71.6,5.82
175,muzhi,64,RU,1525825701,96,65.4,64.7,16.94,11.88
176,taquarituba,0,BR,1525825702,76,-23.53,-49.25,68.6,14.9
177,hun,0,BE,1525823700,71,50.34,4.87,66.2,5.82
178,praia da vitoria,40,PT,1525824000,87,38.73,-27.07,57.2,9.19
179,shenjiamen,88,CN,1525825703,100,29.96,122.3,60.95,11.77
180,chimbote,56,PE,1525825703,94,-9.08,-78.59,67.52,4.61
181,rio cauto,75,CU,1525823400,88,20.56,-76.92,75.2,3.36
182,kem,76,UG,1525825704,99,2.68,33.77,64.1,3.15
183,hay river,40,CA,1525820400,49,60.82,-115.79,48.2,10.29
184,basco,1,US,1525823700,31,40.33,-91.2,78.8,16.11
185,ishinomaki,75,JP,1525820400,100,38.42,141.3,48.2,6.93
186,baturaja,48,ID,1525825705,78,-4.12,104.17,79.22,3.6
187,santa fe,100,AR,1525825657,99,-31.62,-60.7,66.53,9.42
188,cabatuan,32,PH,1525825706,93,16.95,121.67,77.24,2.93
189,kudahuvadhoo,88,MV,1525825706,100,2.67,72.89,81.29,4.72
190,quatre cocos,40,MU,1525824000,78,-20.21,57.76,75.2,5.82
191,hauterive,12,FR,1525824000,87,46.09,3.45,57.2,8.05
192,gurupi,0,BR,1525825707,53,-11.73,-49.07,75.08,4.38
193,carnarvon,0,ZA,1525825708,86,-30.97,22.13,34.31,3.6
194,sobolevo,24,RU,1525825708,77,54.43,31.9,52.67,5.06
195,tezu,12,IN,1525825708,86,27.93,96.16,59.06,1.92
196,vao,0,EE,1525825709,65,59.1,26.19,42.86,6.4
197,grand gaube,40,MU,1525824000,78,-20.01,57.66,75.2,5.82
198,baykit,32,RU,1525825709,71,61.68,96.39,18.56,2.93
199,palmer,75,AU,1525824000,76,-34.85,139.16,55.4,8.05
200,amarante,0,PT,1525824000,93,41.27,-8.08,57.2,2.24
201,kodiak,1,US,1525823580,48,39.95,-94.76,82.4,13.87
202,makakilo city,20,US,1525824240,65,21.35,-158.09,77.0,10.29
203,mabaruma,0,GY,1525825711,77,8.2,-59.78,80.66,7.52
204,pizhanka,0,RU,1525825711,69,57.46,48.54,42.86,12.77
205,alofi,75,NU,1525820400,58,-19.06,-169.92,82.4,16.11
206,praya,20,ID,1525822200,83,-8.71,116.27,77.0,2.24
207,kholodnyy,56,RU,1525825712,88,62.72,147.95,44.12,9.98
208,narsaq,36,GL,1525823400,55,60.91,-46.05,35.6,12.75
209,temyasovo,90,RU,1525822200,70,52.99,58.1,44.6,6.71
210,bara,0,NG,1525825713,44,10.41,10.6,83.72,12.44
211,tuatapere,8,NZ,1525825714,91,-46.13,167.69,54.65,16.46
212,kirakira,44,SB,1525825714,100,-10.46,161.92,83.81,18.81
213,lagoa,0,PT,1525824000,82,37.14,-8.45,60.8,6.93
214,ribeira grande,0,PT,1525825715,100,38.52,-28.7,60.86,9.53
215,upernavik,12,GL,1525825715,92,72.79,-56.15,10.82,10.2
216,lufilufi,40,WS,1525824000,66,-13.87,-171.6,89.6,5.82
217,barrow,92,AR,1525825716,86,-38.31,-60.23,68.15,7.18
218,sandakan,75,MY,1525820400,88,5.84,118.12,78.8,4.7
219,rawson,0,AR,1525825716,59,-43.3,-65.11,56.09,9.75
220,wiarton,20,CA,1525820400,42,44.74,-81.13,68.0,2.24
221,selje,0,NO,1525823400,51,62.05,5.35,62.6,18.34
222,hofn,88,IS,1525825717,100,64.25,-15.21,42.41,9.08
223,necochea,48,AR,1525825718,86,-38.55,-58.74,67.52,9.19
224,zhigansk,68,RU,1525825718,75,66.77,123.37,31.97,3.27
225,cheremukhovo,20,RU,1525825718,59,56.23,46.23,52.76,8.41
226,sabla,0,NG,1525825719,43,12.75,4.71,82.01,11.21
227,luan,75,CH,1525823400,82,46.36,6.98,59.0,3.36
228,hinton,76,CA,1525825719,50,53.4,-117.57,59.69,3.04
229,wladyslawowo,0,PL,1525824000,81,54.79,18.4,50.0,2.24
230,itoman,90,JP,1525823760,83,26.12,127.67,77.0,11.41
231,bowen,40,AU,1525820400,78,-20.01,148.25,75.2,5.82
232,pimentel,32,BR,1525825720,95,-3.7,-45.5,74.45,2.37
233,tarko-sale,48,RU,1525825641,58,64.92,77.78,5.87,4.5
234,chapais,1,CA,1525820400,30,49.78,-74.86,42.8,6.93
235,requena,40,ES,1525824000,82,39.49,-1.1,62.6,1.12
236,ayagoz,36,KZ,1525825722,58,47.96,80.43,36.11,5.17
237,daru,48,SL,1525825722,80,7.99,-10.85,77.96,7.74
238,maralal,12,KE,1525825722,97,1.1,36.7,54.74,3.04
239,tondano,20,ID,1525822200,83,1.3,124.91,80.6,2.24
240,ulladulla,0,AU,1525820400,59,-35.36,150.48,62.6,8.05
241,carballo,92,ES,1525824000,93,43.21,-8.69,55.4,5.82
242,naron,92,ES,1525824000,93,43.52,-8.15,55.4,5.82
243,panaba,80,MX,1525825724,40,21.28,-88.27,82.64,8.63
244,dunedin,0,NZ,1525825724,65,-45.87,170.5,57.89,6.62
245,maracacume,92,BR,1525825724,96,-2.04,-45.96,75.17,4.5
246,alta floresta,0,BR,1525825725,52,-9.87,-56.08,84.62,3.6
247,phan thiet,44,VN,1525825725,100,10.93,108.1,79.4,3.15
248,gunjur,5,GM,1525824000,77,13.18,-16.76,69.8,12.75
249,hoquiam,90,US,1525823580,87,46.98,-123.89,68.0,5.82
250,turukhansk,56,RU,1525825726,69,65.8,87.96,9.74,5.95
251,angoram,24,PG,1525825727,76,-4.06,144.07,85.25,2.93
252,beyneu,8,KZ,1525825727,43,45.32,55.19,51.59,7.96
253,purranque,90,CL,1525824000,93,-40.91,-73.16,50.0,3.36
254,roura,75,GF,1525824000,94,4.73,-52.33,77.0,3.36
255,zhezkazgan,0,KZ,1525825728,90,47.8,67.71,39.71,10.09
256,sorland,48,NO,1525825729,84,67.67,12.69,46.73,22.17
257,mobaye,36,CF,1525825729,93,4.33,21.18,73.55,4.16
258,peniche,90,PT,1525824000,93,39.36,-9.38,57.2,9.17
259,souillac,90,FR,1525824000,87,45.6,-0.6,59.0,9.17
260,sioux lookout,90,CA,1525820400,37,50.1,-91.92,53.6,4.7
261,obo,0,CF,1525825730,86,5.39,26.49,71.66,3.6
262,port lincoln,92,AU,1525825730,91,-34.72,135.86,62.66,12.44
263,oktyabrskoye,0,RU,1525825731,67,56.73,85.44,25.22,5.5
264,marsala,40,IT,1525823700,87,37.8,12.44,59.0,3.36
265,royal tunbridge wells,0,GB,1525823400,81,51.14,0.27,60.8,5.82
266,pozo colorado,0,PY,1525825732,67,-23.49,-58.8,78.77,10.31
267,hamakita,90,JP,1525820580,82,34.8,137.78,57.2,10.29
268,san juan,40,PH,1525820400,74,14.6,121.03,86.0,9.17
269,chazuta,40,PE,1525824000,88,-6.57,-76.13,78.8,4.7
270,morros,75,BR,1525824000,94,-2.87,-44.04,75.2,2.24
271,zharkent,56,KZ,1525825734,41,44.17,80.0,32.42,1.59
272,tecoanapa,75,MX,1525823040,74,16.99,-99.26,82.4,11.41
273,faanui,24,PF,1525825735,100,-16.48,-151.75,81.92,15.9
274,hasaki,75,JP,1525822920,93,35.73,140.83,53.6,16.11
275,kieta,32,PG,1525825735,97,-6.22,155.63,82.28,6.06
276,puerto colombia,75,CO,1525824000,88,10.99,-74.96,78.8,3.36
277,tura,92,IN,1525825736,97,25.52,90.21,68.87,5.73
278,gillette,1,US,1525823580,45,44.29,-105.5,68.0,10.29
279,capao da canoa,48,BR,1525825737,97,-29.75,-50.01,73.64,24.07
280,show low,1,US,1525823700,5,34.25,-110.03,86.0,9.17
281,kurilsk,64,RU,1525825737,94,45.23,147.88,38.81,3.15
282,progreso,90,UY,1525824000,100,-34.68,-56.22,66.2,10.29
283,road town,90,VG,1525823580,78,18.42,-64.62,80.6,14.99
284,dumas,0,IN,1525825738,100,21.09,72.71,83.36,9.75
285,pisco,64,PE,1525824000,82,-13.71,-76.2,68.0,5.82
286,severo-yeniseyskiy,0,RU,1525825739,77,60.37,93.04,22.34,5.06
287,vila do maio,40,CV,1525824000,73,15.13,-23.22,69.8,20.8
288,redlands,40,US,1525823880,17,34.06,-117.19,93.2,9.17
289,reda,0,PL,1525824000,81,54.6,18.35,50.0,2.24
290,patacamaya,56,BO,1525825740,48,-17.23,-67.92,47.81,5.95
291,farah,36,AF,1525825741,38,32.37,62.11,63.56,2.59
292,fort nelson,40,CA,1525820400,30,58.81,-122.69,59.0,10.29
293,erenhot,12,CN,1525825741,44,43.65,111.97,65.09,17.92
294,havoysund,0,NO,1525823400,69,71.0,24.66,37.4,2.24
295,geraldton,90,CA,1525820400,29,49.72,-86.95,50.0,11.41
296,semirom,32,IR,1525825742,75,31.41,51.57,46.37,3.38
297,mahina,0,ML,1525825743,43,13.76,-10.85,82.19,5.73
298,lorengau,20,PG,1525825743,96,-2.02,147.27,85.07,6.51
299,trincomalee,8,LK,1525825743,94,8.58,81.23,76.43,7.85
300,avera,1,US,1525823700,53,33.19,-82.53,80.6,2.59
301,beringovskiy,92,RU,1525825744,99,63.05,179.32,31.61,21.16
302,omboue,92,GA,1525825744,100,-1.57,9.26,80.03,2.82
303,mali,92,CN,1525825744,99,27.53,102.2,51.86,1.59
304,nioro,0,GM,1525825745,30,13.79,-15.05,84.26,11.21
305,college,1,US,1525823880,19,64.86,-147.8,62.6,6.17
306,insch,0,GB,1525823400,81,57.34,-2.61,48.2,2.24
307,kangaatsiaq,56,GL,1525825746,100,68.31,-53.46,17.3,3.71
308,djibo,0,BF,1525825746,34,14.1,-1.63,78.68,7.18
309,rio grande,0,BR,1525825746,89,-32.03,-52.1,69.59,17.02
310,ketchikan,1,US,1525823760,52,55.34,-131.65,66.2,9.17
311,cabo san lucas,5,MX,1525823160,22,22.89,-109.91,87.8,17.22
312,bathsheba,75,BB,1525824000,78,13.22,-59.52,78.8,20.8
313,san luis,92,AR,1525825748,100,-33.3,-66.34,58.79,7.63
314,pevek,20,RU,1525825749,93,69.7,170.27,28.19,14.0
315,zaysan,0,KZ,1525825750,70,47.47,84.87,28.91,2.37
316,dingle,24,PH,1525825750,98,11.0,122.67,80.03,4.38
317,akdepe,0,TM,1525820400,23,42.05,59.39,62.6,13.87
318,cockburn town,24,TC,1525825751,100,21.46,-71.14,78.59,16.69
319,lata,0,IN,1525825751,97,30.78,78.62,41.42,2.93
320,kupang,0,ID,1525825751,87,-10.16,123.6,82.64,12.66
321,lavrentiya,76,RU,1525825751,92,65.58,-170.99,32.33,16.24
322,boende,64,CD,1525825752,95,-0.28,20.88,75.17,1.92
323,markova,0,RU,1525824000,80,52.21,104.21,35.6,8.95
324,izhmorskiy,0,RU,1525825753,99,56.19,86.64,27.38,9.19
325,khartoum,0,SD,1525824000,8,15.59,32.54,89.6,13.87
326,gourcy,0,BF,1525825753,30,13.21,-2.36,81.47,5.95
327,aswan,0,EG,1525820400,13,24.09,32.9,78.8,5.82
328,esperance,75,TT,1525820400,94,10.24,-61.45,75.2,14.99
329,sinnamary,92,GF,1525825755,100,5.38,-52.96,76.61,8.19
330,denpasar,0,ID,1525825755,97,-8.65,115.22,73.19,2.26
331,bhadra,12,IN,1525825755,80,29.1,75.17,68.06,2.82
332,mount isa,0,AU,1525824000,26,-20.73,139.49,80.6,9.17
333,dryden,90,CA,1525820400,37,49.79,-92.84,53.6,5.82
334,cowra,0,AU,1525825756,92,-33.84,148.69,59.33,3.94
335,rincon,1,US,1525824900,77,32.3,-81.24,80.6,4.16
336,tombouctou,0,ML,1525825757,30,16.77,-3.01,76.61,5.84
337,banes,75,CU,1525823400,88,20.96,-75.72,75.2,3.36
338,rebrikha,92,RU,1525825757,99,53.08,82.34,38.36,9.64
339,kyzyl-suu,48,KG,1525825758,100,42.34,78.0,38.72,2.48
340,khilok,0,RU,1525825758,74,51.36,110.46,35.84,8.19
341,san policarpo,0,PH,1525825758,93,12.18,125.51,83.27,4.94
342,baikunthpur,0,IN,1525825759,61,23.26,82.56,70.94,5.95
343,chuy,92,UY,1525825759,87,-33.69,-53.46,67.88,13.67
344,manakara,88,MG,1525825759,100,-22.14,48.01,72.11,4.72
345,kamenka,0,RU,1525825760,76,53.19,44.05,50.96,2.71
346,melville,1,CA,1525820400,19,50.93,-102.81,69.8,3.36
347,san cristobal,90,EC,1525824000,76,-0.39,-78.55,57.2,2.24
348,sayyan,0,YE,1525825761,77,15.17,44.32,43.58,1.36
349,ullapool,80,GB,1525825761,94,57.9,-5.16,47.36,15.68
350,bundaberg,0,AU,1525825761,100,-24.87,152.35,69.86,9.64
351,andros town,75,BS,1525820400,78,24.73,-77.79,78.8,6.93
352,surt,8,LY,1525825762,72,31.21,16.59,69.77,17.13
353,simao,8,CN,1525825762,81,22.76,100.79,68.51,2.59
354,lompoc,1,US,1525823760,68,34.64,-120.46,64.4,18.34
355,harur,32,IN,1525825763,97,12.06,78.48,70.76,2.59
356,westport,92,IE,1525825764,88,53.8,-9.52,49.07,13.22
357,porec,24,HR,1525824000,52,45.23,13.59,64.4,5.82
358,mersing,0,MY,1525825764,94,2.43,103.84,80.39,5.61
359,airai,0,TL,1525825765,72,-8.93,125.41,74.99,1.7
360,cap-aux-meules,20,CA,1525820400,57,47.38,-61.86,51.8,17.22
361,prescott,1,US,1525823580,7,34.54,-112.47,87.8,12.75
362,tondi,0,NG,1525825766,64,10.88,4.75,83.27,10.76
363,nouakchott,0,MR,1525825766,90,18.08,-15.98,68.24,20.49
364,ucluelet,90,CA,1525820400,82,48.94,-125.55,57.2,4.7
365,saint pete beach,1,US,1525823760,48,27.73,-82.74,82.4,10.29
366,cabedelo,40,BR,1525824000,88,-6.97,-34.84,77.0,3.36
367,argayash,40,RU,1525824000,87,55.49,60.88,46.4,6.71
368,ostersund,24,SE,1525823400,81,63.18,14.64,46.4,11.41
369,taltal,44,CL,1525825768,89,-25.41,-70.49,55.37,2.48
370,san patricio,20,PY,1525825769,66,-26.98,-56.83,76.61,4.72
371,hongjiang,92,CN,1525825769,90,27.21,109.83,63.92,4.16
372,iskateley,0,RU,1525825769,70,67.68,53.15,13.61,9.08
373,zyryanka,64,RU,1525825770,70,65.73,150.89,33.5,5.28
374,ancud,0,CL,1525825770,85,-41.87,-73.83,44.57,3.38
375,yatou,40,CM,1525824000,100,3.63,9.81,73.4,1.12
376,torbay,5,CA,1525820400,41,47.66,-52.73,41.0,14.99
377,ponta do sol,92,BR,1525825771,53,-20.63,-46.0,72.65,7.18
378,kaduna,0,NG,1525825771,67,10.52,7.44,78.41,10.76
379,chipurupalle,68,IN,1525825772,97,18.32,83.57,74.81,2.37
380,mahebourg,40,MU,1525824000,78,-20.41,57.7,75.2,5.82
381,hualmay,24,PE,1525825772,93,-11.1,-77.61,66.89,3.38
382,fandriana,92,MG,1525825773,98,-20.24,47.38,59.87,2.71
383,bilma,0,NE,1525825773,22,18.69,12.92,74.99,4.16
384,soligalich,0,RU,1525825773,69,59.08,42.29,39.44,11.32
385,tautira,75,PF,1525824000,74,-17.73,-149.15,82.4,10.29
386,porto novo,40,BR,1525824000,77,-23.68,-45.44,66.2,6.93
387,kainan,75,JP,1525822200,82,34.15,135.21,60.8,6.93
388,manama,0,AE,1525824000,73,25.33,56.02,86.0,4.7
389,pavlodar,90,KZ,1525824000,100,52.28,76.96,37.4,4.47
390,port hedland,0,AU,1525824000,78,-20.31,118.58,77.0,4.7
391,jieshi,92,CN,1525825776,100,22.82,115.83,75.08,21.5
392,san ramon,75,NI,1525820400,64,12.92,-85.84,75.2,1.92
393,sept-iles,20,CA,1525820400,27,50.2,-66.38,51.8,13.87
394,santiago del estero,80,AR,1525825777,98,-27.8,-64.26,69.59,5.17
395,quelimane,0,MZ,1525824000,78,-17.88,36.89,73.4,3.15
396,gorontalo,36,ID,1525825777,92,0.54,123.06,76.79,1.7
397,troitskoye,92,RU,1525825778,98,52.98,84.68,42.59,2.59
398,cherskiy,48,RU,1525825778,93,68.75,161.3,25.58,4.72
399,marawi,12,PH,1525825778,90,8.0,124.29,74.81,1.81
400,sabara,44,BR,1525825778,86,-24.25,-48.48,64.19,9.75
401,waycross,1,US,1525823880,32,31.21,-82.35,80.6,2.93
402,skibotn,0,NO,1525823400,56,69.39,20.27,41.0,2.24
403,butembo,68,CD,1525825779,99,0.12,29.29,62.12,1.48
404,galveston,1,US,1525823760,33,40.58,-86.19,77.0,6.93
405,strelka,80,RU,1525825780,72,58.08,93.03,28.73,6.96
406,opuwo,0,NA,1525825780,58,-18.06,13.84,51.32,1.03
407,iralaya,20,HN,1525824000,69,15.0,-83.23,82.4,5.82
408,khorixas,0,NA,1525825781,54,-20.37,14.96,55.28,2.26
409,faro,0,PT,1525824000,82,37.02,-7.94,60.8,6.93
410,roald,0,NO,1525823400,42,62.58,6.12,62.6,6.93
411,presidencia roque saenz pena,48,AR,1525825782,75,-26.79,-60.44,77.51,11.88
412,constitucion,75,MX,1525822980,9,23.99,-104.67,82.4,6.93
413,umm lajj,0,SA,1525825782,94,25.02,37.27,69.77,0.92
414,namatanai,8,PG,1525825783,96,-3.66,152.44,84.71,7.74
415,nedjo,12,ET,1525825783,91,9.5,35.5,59.51,2.48
416,lagos,20,NG,1525824000,94,6.46,3.39,75.2,2.24
417,banyo,32,CM,1525825783,91,6.75,11.81,63.92,3.04
418,flin flon,75,CA,1525820400,37,54.77,-101.88,53.6,8.05
419,zabid,0,YE,1525825784,68,14.2,44.5,42.86,1.7
420,sambava,92,MG,1525825784,100,-14.27,50.17,76.7,11.32
421,port blair,48,IN,1525825785,100,11.67,92.75,84.17,0.47
422,shaoxing,20,CN,1525822200,72,30.0,120.58,64.4,4.47
423,sirjan,0,IR,1525825785,52,29.44,55.67,54.38,2.93
424,awjilah,36,LY,1525825786,26,29.14,21.3,77.15,11.99
425,placido de castro,20,BR,1525825786,92,-10.34,-67.19,76.7,2.26
426,russell,75,AR,1525824000,77,-33.01,-68.8,60.8,4.7
427,pochutla,75,MX,1525822800,100,15.74,-96.47,86.0,3.6
428,sao joao da barra,75,BR,1525820400,88,-21.64,-41.05,73.4,3.36
429,rio claro,0,BR,1525820400,60,-22.41,-47.56,71.6,8.05
430,turayf,0,SA,1525824000,67,31.68,38.65,59.0,4.7
431,sechura,76,PE,1525825788,76,-5.56,-80.82,74.99,9.08
432,solano,44,PH,1525825789,96,16.52,121.18,72.56,1.7
433,xuddur,0,SO,1525825789,92,4.12,43.89,71.21,9.64
434,calabozo,56,VE,1525825789,86,8.92,-67.43,77.96,2.93
435,saldanha,8,PT,1525825790,92,41.42,-6.55,55.91,3.6
436,ternate,40,PH,1525820400,74,14.29,120.72,86.0,9.17
437,wailuku,90,US,1525824540,94,20.89,-156.51,71.6,17.22
438,florianopolis,40,BR,1525824000,94,-27.6,-48.55,68.0,3.36
439,faranah,0,GN,1525825791,66,10.04,-10.74,77.96,11.43
440,sainte-thecle,8,CA,1525825791,62,46.82,-72.5,58.52,3.04
441,locri,40,IT,1525823700,82,38.24,16.26,62.6,5.82
442,formosa do rio preto,36,BR,1525825792,44,-11.04,-45.19,77.69,7.07
443,amalapuram,92,IN,1525825792,92,16.58,82.0,82.64,6.4
444,casambalangan,56,PH,1525825792,98,18.38,122.13,83.9,8.52
445,saint george,20,GR,1525823400,93,39.45,22.34,57.2,5.82
446,caravelas,92,BR,1525825793,100,-17.73,-39.27,77.42,11.21
447,guerrero negro,0,MX,1525825794,44,27.97,-114.04,73.46,10.98
448,flinders,0,AU,1525820400,59,-34.58,150.85,62.6,8.05
449,yerbogachen,80,RU,1525825794,90,61.28,108.01,40.34,6.4
450,fort saint james,8,CA,1525825795,45,54.43,-124.25,63.47,5.28
451,miles city,1,US,1525823580,49,46.41,-105.84,73.4,4.7
452,biak,56,ID,1525825795,92,-0.91,122.88,80.84,4.05
453,doha,0,QA,1525824000,33,25.29,51.53,89.6,4.7
454,kinsale,20,IE,1525824000,100,51.71,-8.52,42.8,8.05
455,shirokovskiy,92,RU,1525825796,97,58.84,57.78,42.41,12.88
456,bartica,75,GY,1525824000,94,6.41,-58.62,75.2,6.93
457,port macquarie,88,AU,1525824000,64,-31.43,152.91,68.0,5.82
458,vila franca do campo,20,PT,1525824000,82,37.72,-25.43,59.0,6.93
459,canico,40,PT,1525824000,63,32.63,-16.85,62.6,10.29
460,mon,100,IN,1525825797,100,26.73,95.03,68.42,3.38
461,hirara,75,JP,1525820400,78,24.8,125.28,75.2,8.05
462,tiarei,75,PF,1525824000,74,-17.53,-149.33,82.4,10.29
463,nabire,76,ID,1525825798,91,-3.36,135.5,73.91,2.48
464,palafrugell,20,ES,1525824000,100,41.92,3.16,55.4,1.12
465,snyder,1,US,1525824900,14,32.72,-100.92,91.4,18.34
466,antofagasta,75,CL,1525824000,77,-23.65,-70.4,59.0,5.82
467,bandarbeyla,0,SO,1525825642,100,9.49,50.81,84.62,15.23
468,provideniya,80,RU,1525825800,92,64.42,-173.23,32.96,19.71
469,barcelos,0,PT,1525824000,93,41.53,-8.62,57.2,2.24
470,aasiaat,8,GL,1525825800,100,68.71,-52.87,20.09,4.61
471,angoche,8,MZ,1525825800,100,-16.23,39.91,78.59,13.11
472,severodvinsk,75,RU,1525824000,80,64.56,39.82,33.8,6.71
473,sorong,56,ID,1525825801,100,-0.86,131.25,80.3,2.71
474,ahipara,0,NZ,1525825802,79,-35.17,173.16,64.82,4.5
475,petrolina,0,BR,1525824000,65,-9.38,-40.5,77.0,4.7
476,wewak,12,PG,1525825804,80,-3.55,143.63,83.72,2.59
477,yerofey pavlovich,76,RU,1525825804,54,53.97,121.97,53.84,7.63
478,poltavka,20,RU,1525825805,76,54.36,71.76,27.65,2.71
479,karratha,8,AU,1525825806,61,-20.74,116.85,70.58,2.82
480,ballina,88,IE,1525825806,88,54.11,-9.15,48.26,10.76
481,acari,92,BR,1525825828,71,-6.44,-36.64,75.62,10.87
482,port hardy,90,CA,1525824240,82,50.7,-127.42,55.4,6.93
483,tongren,92,CN,1525825809,78,27.72,109.18,64.37,9.42
484,porangatu,0,BR,1525825809,62,-13.44,-49.14,72.02,3.71
485,tete,0,MZ,1525825809,76,-16.16,33.59,68.24,5.61
486,kavaratti,20,IN,1525825810,100,10.57,72.64,85.79,7.52
487,saint-ambroise,90,FR,1525824000,87,47.25,-0.65,55.4,6.93
488,ambajogai,0,IN,1525825810,38,18.73,76.39,73.46,11.21
489,san jose,8,PH,1525825811,90,15.79,120.99,79.22,2.48
490,priladozhskiy,0,RU,1525822200,39,59.85,31.48,50.0,6.71
491,savelugu,20,GH,1525825812,54,9.63,-0.83,87.77,9.98
492,gat,0,SN,1525824000,56,14.69,-16.54,73.4,6.93
493,high prairie,36,CA,1525825813,37,55.43,-116.48,65.99,9.53
494,jilikul,0,TJ,1525825813,76,37.49,68.53,53.75,3.6
495,pamulang,20,ID,1525824000,83,-6.34,106.74,80.6,4.7
496,wajir,8,KE,1525825814,87,1.75,40.07,74.99,8.19
497,burnie,76,AU,1525825814,100,-41.05,145.91,58.7,24.63
498,kyrksaeterora,0,NO,1525823400,45,63.29,9.09,62.6,13.87
499,tahe,0,CN,1525825815,46,52.34,124.71,56.72,9.98
500,san rafael,92,AR,1525825816,100,-34.61,-68.33,53.39,2.15
501,atagay,36,RU,1525825816,60,55.1,99.39,43.49,3.27
502,itarema,12,BR,1525825816,95,-2.92,-39.92,75.98,4.72
503,douglas,1,US,1525823760,5,31.34,-109.55,95.0,16.11
504,nha trang,0,VN,1525825817,96,12.24,109.19,80.48,6.4
505,dali,12,CN,1525825818,100,25.6,100.24,52.76,1.92
506,lastoursville,44,GA,1525825818,99,-0.81,12.73,72.11,1.7
507,riyadh,90,SA,1525820400,12,24.63,46.72,87.8,18.34
508,kloulklubed,75,PW,1525823520,74,7.04,134.26,87.8,5.82
509,galle,1,US,1525823760,33,29.74,-97.91,87.8,14.99
510,paducah,1,US,1525824900,41,37.08,-88.6,78.8,3.15
511,amahai,80,ID,1525825819,100,-3.31,129.0,79.85,4.5
512,bud,0,NO,1525823400,57,62.91,6.91,62.6,9.17
513,moshenskoye,0,RU,1525825820,60,58.52,34.59,42.41,6.4
514,osakarovka,0,KZ,1525825820,88,50.56,72.58,34.04,4.16
515,bajil,76,ES,1525825821,90,38.23,-2.07,55.73,1.14
516,klisura,0,BG,1525824000,93,42.69,24.45,57.2,1.92
517,okhotsk,0,RU,1525825821,72,59.36,143.24,47.72,2.15
518,zhanaozen,48,KZ,1525825821,23,43.35,52.85,66.89,15.35
519,kabalo,36,CD,1525825822,89,-6.05,26.92,72.2,2.71
520,vitoria,8,BR,1525825822,85,-8.36,-72.77,78.59,1.59
521,benguela,0,AO,1525825823,100,-12.58,13.4,77.96,3.49
522,ust-nera,24,RU,1525825823,89,64.57,143.24,36.29,4.5
523,fairbanks,1,US,1525823880,19,64.84,-147.72,62.6,6.17
524,poanas,20,MX,1525822800,11,25.77,-103.61,91.4,11.41
525,dabwali,24,IN,1525825824,74,29.95,74.74,68.96,3.6
526,mulchen,20,CL,1525825824,90,-37.72,-72.23,43.4,2.37
527,kaitangata,0,NZ,1525825825,68,-46.28,169.85,56.36,20.83
528,athabasca,12,CA,1525825825,32,54.72,-113.29,70.31,16.91
529,onalaska,1,US,1525824900,27,43.88,-91.23,78.8,5.82
530,broken hill,20,AU,1525825826,51,-31.97,141.45,62.21,5.39
